{
  "meta": {
    "titulo": "Informe de rutas — Real de Catorce",
    "descripcion": "Zonas, viajes y paradas desde depósito Burzaco",
    "generado_utc": "2026-03-23T10:52:57.110662+00:00",
    "deposito": {
      "nombre": "Ombú 1269, Burzaco",
      "lat": -34.8353338,
      "lon": -58.4233261
    },
    "capacidad_camion": 5000
  },
  "segmentos": {
    "dmc": {
      "id": "dmc",
      "titulo": "DMC",
      "subtitulo": "Cupos DMC+COMEDOR",
      "zonas": [
        {
          "id": 1,
          "titulo": "Zona 1",
          "viajes": [
            {
              "viaje_n": 1,
              "cupos_cargados": 4988,
              "n_paradas": 17,
              "min_total": 225.77,
              "km": 41.72,
              "stops": [
                {
                  "orden": 1,
                  "escuela": "3 (JI CC)",
                  "direccion": "Monroe 355 Temperley",
                  "direccion_completa": "Monroe  Temperley, 355, Temperley, Buenos Aires",
                  "barrio": "Temperley",
                  "lat": -34.7758816,
                  "lon": -58.3971199,
                  "cupos": 110
                },
                {
                  "orden": 2,
                  "escuela": "919 (JI)",
                  "direccion": "Juncal 240",
                  "direccion_completa": "Juncal, 240, Lomas de Zamora (referencia), Buenos Aires",
                  "barrio": "Lomas de Zamora · Juncal, Temperley",
                  "lat": -34.7692992,
                  "lon": -58.3948739,
                  "cupos": 110
                },
                {
                  "orden": 3,
                  "escuela": "37 (PP)",
                  "direccion": "Meeks 778",
                  "direccion_completa": "Meeks, 778, Lomas de Zamora (referencia), Buenos Aires",
                  "barrio": "Lomas de Zamora · Lomitas, Lomas de Zamora",
                  "lat": -34.762768,
                  "lon": -58.3985533,
                  "cupos": 972
                },
                {
                  "orden": 4,
                  "escuela": "906 (JI)",
                  "direccion": "Av. Meeks 778",
                  "direccion_completa": "Av. Meeks, 778, Lomas de Zamora (referencia), Buenos Aires",
                  "barrio": "Lomas de Zamora · Lomitas, Lomas de Zamora",
                  "lat": -34.7615463,
                  "lon": -58.3983414,
                  "cupos": 111
                },
                {
                  "orden": 5,
                  "escuela": "9 (PP)",
                  "direccion": "Hipólito Yrigoyen 9243",
                  "direccion_completa": "Hipólito Yrigoyen, 9243, Lomas de Zamora (referencia), Buenos Aires",
                  "barrio": "Lomas de Zamora · Avenida Hipólito Yrigoyen, Lomitas, Lomas de Zamora",
                  "lat": -34.7633025,
                  "lon": -58.4033619,
                  "cupos": 484
                },
                {
                  "orden": 6,
                  "escuela": "34 (MS)",
                  "direccion": "Jose Maria Penna 99",
                  "direccion_completa": "Jose Maria Penna, 99, Lomas de Zamora (referencia), Buenos Aires",
                  "barrio": "Lomas de Zamora · 99, Doctor José María Penna, Lomas de Zamora",
                  "lat": -34.7582647,
                  "lon": -58.4108071,
                  "cupos": 650
                },
                {
                  "orden": 7,
                  "escuela": "930 (JI)",
                  "direccion": "Jose Maria Penna 93",
                  "direccion_completa": "Jose Maria Penna, 93, Lomas de Zamora (referencia), Buenos Aires",
                  "barrio": "Lomas de Zamora · Doctor José María Penna, Lomas de Zamora",
                  "lat": -34.7581944,
                  "lon": -58.4109198,
                  "cupos": 120
                },
                {
                  "orden": 8,
                  "escuela": "901 (JI)",
                  "direccion": "Jose Maria Penna 93",
                  "direccion_completa": "Jose Maria Penna, 93, Lomas de Zamora (referencia), Buenos Aires",
                  "barrio": "Lomas de Zamora · Doctor José María Penna, Lomas de Zamora",
                  "lat": -34.7581944,
                  "lon": -58.4109198,
                  "cupos": 160
                },
                {
                  "orden": 9,
                  "escuela": "503 (EE)",
                  "direccion": "Alvear 563",
                  "direccion_completa": "Alvear, 563, Lomas de Zamora (referencia), Buenos Aires",
                  "barrio": "Lomas de Zamora · General Carlos María de Alvear, Lomas de Zamora",
                  "lat": -34.7529442,
                  "lon": -58.4068783,
                  "cupos": 171
                },
                {
                  "orden": 10,
                  "escuela": "902 (JI)",
                  "direccion": "Castelli 840",
                  "direccion_completa": "Castelli, 840, Lomas de Zamora (referencia), Buenos Aires",
                  "barrio": "Lomas de Zamora · Juan José Castelli, Lomas de Zamora",
                  "lat": -34.7524762,
                  "lon": -58.407524,
                  "cupos": 135
                },
                {
                  "orden": 11,
                  "escuela": "91 (PP)",
                  "direccion": "Manuel Castro 990",
                  "direccion_completa": "Manuel Castro, 990, Lomas de Zamora (referencia), Buenos Aires",
                  "barrio": "Lomas de Zamora · 990, Senador Manuel Castro, Banfield",
                  "lat": -34.7487797,
                  "lon": -58.4024221,
                  "cupos": 0
                },
                {
                  "orden": 12,
                  "escuela": "933 (JI)",
                  "direccion": "Manuel Castro 990",
                  "direccion_completa": "Manuel Castro, 990, Lomas de Zamora (referencia), Buenos Aires",
                  "barrio": "Lomas de Zamora · 990, Senador Manuel Castro, Banfield",
                  "lat": -34.7487797,
                  "lon": -58.4024221,
                  "cupos": 218
                },
                {
                  "orden": 13,
                  "escuela": "1 (MS)",
                  "direccion": "Hipólito Yrigoyen 7731",
                  "direccion_completa": "Hipólito Yrigoyen, 7731, Lomas de Zamora (referencia), Buenos Aires",
                  "barrio": "Lomas de Zamora · Avenida Hipólito Yrigoyen, Banfield",
                  "lat": -34.7453466,
                  "lon": -58.3995995,
                  "cupos": 500
                },
                {
                  "orden": 14,
                  "escuela": "15 (PP)",
                  "direccion": "Alvear 1715",
                  "direccion_completa": "Alvear, 1715, Lomas de Zamora (referencia), Buenos Aires",
                  "barrio": "Lomas de Zamora · General Carlos María de Alvear, Banfield",
                  "lat": -34.7389709,
                  "lon": -58.403935,
                  "cupos": 336
                },
                {
                  "orden": 15,
                  "escuela": "89 (MS)",
                  "direccion": "Larroque 2200",
                  "direccion_completa": "Larroque, 2200, Lomas de Zamora (referencia), Buenos Aires",
                  "barrio": "Lomas de Zamora · Banfield",
                  "lat": -34.7433427,
                  "lon": -58.4100662,
                  "cupos": 90
                },
                {
                  "orden": 16,
                  "escuela": "6 (MS)",
                  "direccion": "Viamonte 1567",
                  "direccion_completa": "Viamonte, 1567, Lomas de Zamora (referencia), Buenos Aires",
                  "barrio": "Lomas de Zamora · 1567, J. J. Viamonte, Banfield",
                  "lat": -34.7432808,
                  "lon": -58.388239,
                  "cupos": 600
                },
                {
                  "orden": 17,
                  "escuela": "63 (MS)",
                  "direccion": "Viamonte 436",
                  "direccion_completa": "Viamonte, 436, Lomas de Zamora (referencia), Buenos Aires",
                  "barrio": "Lomas de Zamora · J. J. Viamonte, Lomas de Zamora",
                  "lat": -34.7566317,
                  "lon": -58.391327,
                  "cupos": 221
                }
              ]
            },
            {
              "viaje_n": 2,
              "cupos_cargados": 4818,
              "n_paradas": 6,
              "min_total": 114.46,
              "km": 47.307,
              "stops": [
                {
                  "orden": 1,
                  "escuela": "2 (JI CC)",
                  "direccion": "Anchoris 4566 Temperley Este",
                  "direccion_completa": "Anchoris  Temperley Este, 4566, Temperley, Buenos Aires",
                  "barrio": "Temperley · 1835, Temperley, Buenos Aires",
                  "lat": -34.7633164,
                  "lon": -58.3756688,
                  "cupos": 200
                },
                {
                  "orden": 2,
                  "escuela": "21 (MS)",
                  "direccion": "Manuel Castro 990",
                  "direccion_completa": "Manuel Castro, 990, Lomas de Zamora (referencia), Buenos Aires",
                  "barrio": "Lomas de Zamora · 990, Senador Manuel Castro, Banfield",
                  "lat": -34.7487797,
                  "lon": -58.4024221,
                  "cupos": 2375
                },
                {
                  "orden": 3,
                  "escuela": "49 (PP)",
                  "direccion": "Llaroque 1231",
                  "direccion_completa": "Llaroque, 1231, Lomas de Zamora (referencia), Buenos Aires",
                  "barrio": "Lomas de Zamora · Autopista Camino Negro, Santa Marta, Villa Centenario",
                  "lat": -34.7394312,
                  "lon": -58.4328766,
                  "cupos": 247
                },
                {
                  "orden": 4,
                  "escuela": "70 (PP)",
                  "direccion": "Gabriel Miró 944",
                  "direccion_completa": "Gabriel Miró, 944, Lomas de Zamora (referencia), Buenos Aires",
                  "barrio": "Lomas de Zamora · Gabriel Miró, Villa Centenario",
                  "lat": -34.7241926,
                  "lon": -58.439518,
                  "cupos": 800
                },
                {
                  "orden": 5,
                  "escuela": "87 (MS)",
                  "direccion": "Ostende 1260",
                  "direccion_completa": "Ostende, 1260, Lomas de Zamora (referencia), Buenos Aires",
                  "barrio": "Lomas de Zamora · Ostende, Villa Centenario",
                  "lat": -34.7241604,
                  "lon": -58.440293,
                  "cupos": 496
                },
                {
                  "orden": 6,
                  "escuela": "56 (MS)",
                  "direccion": "Ayolas 1135",
                  "direccion_completa": "Ayolas, 1135, Lomas de Zamora (referencia), Buenos Aires",
                  "barrio": "Lomas de Zamora · Villa Fiorito",
                  "lat": -34.708243,
                  "lon": -58.4365432,
                  "cupos": 700
                }
              ]
            },
            {
              "viaje_n": 3,
              "cupos_cargados": 363,
              "n_paradas": 1,
              "min_total": 36.29,
              "km": 27.612,
              "stops": [
                {
                  "orden": 1,
                  "escuela": "953 (JI)",
                  "direccion": "Calle 109 Nº 1340",
                  "direccion_completa": "Calle 109 Nº, 1340, Lomas de Zamora (referencia), Buenos Aires",
                  "barrio": "Lomas de Zamora · Santa Catalina",
                  "lat": -34.7507727,
                  "lon": -58.4653111,
                  "cupos": 363
                }
              ]
            }
          ]
        },
        {
          "id": 2,
          "titulo": "Zona 2",
          "viajes": [
            {
              "viaje_n": 1,
              "cupos_cargados": 4880,
              "n_paradas": 18,
              "min_total": 241.04,
              "km": 47.07,
              "stops": [
                {
                  "orden": 1,
                  "escuela": "909 (JI)",
                  "direccion": "Suipacha 362",
                  "direccion_completa": "Suipacha, 362, Lomas de Zamora (referencia), Buenos Aires",
                  "barrio": "Lomas de Zamora · Turdera",
                  "lat": -34.7908064,
                  "lon": -58.4093319,
                  "cupos": 70
                },
                {
                  "orden": 2,
                  "escuela": "40 (PP)",
                  "direccion": "Perito Moreno 260",
                  "direccion_completa": "Perito Moreno, 260, Lomas de Zamora (referencia), Buenos Aires",
                  "barrio": "Lomas de Zamora · 260, Perito Francisco Moreno, Temperley",
                  "lat": -34.7827965,
                  "lon": -58.3919436,
                  "cupos": 670
                },
                {
                  "orden": 3,
                  "escuela": "81 (MS)",
                  "direccion": "Indalecio Gomez 502",
                  "direccion_completa": "Indalecio Gomez, 502, Lomas de Zamora (referencia), Buenos Aires",
                  "barrio": "Lomas de Zamora · Indalecio Gómez, Temperley",
                  "lat": -34.779597,
                  "lon": -58.381716,
                  "cupos": 90
                },
                {
                  "orden": 4,
                  "escuela": "32 (PP)",
                  "direccion": "Indalecio Gomez 502",
                  "direccion_completa": "Indalecio Gomez, 502, Lomas de Zamora (referencia), Buenos Aires",
                  "barrio": "Lomas de Zamora · Indalecio Gómez, Temperley",
                  "lat": -34.779597,
                  "lon": -58.381716,
                  "cupos": 460
                },
                {
                  "orden": 5,
                  "escuela": "66 (MS)",
                  "direccion": "El Zorzal 2093",
                  "direccion_completa": "El Zorzal, 2093, Lomas de Zamora (referencia), Buenos Aires",
                  "barrio": "Lomas de Zamora · 2093, El Zorzal, Temperley",
                  "lat": -34.7698072,
                  "lon": -58.3697119,
                  "cupos": 240
                },
                {
                  "orden": 6,
                  "escuela": "47 (PP)",
                  "direccion": "El Zorzal 2093",
                  "direccion_completa": "El Zorzal, 2093, Lomas de Zamora (referencia), Buenos Aires",
                  "barrio": "Lomas de Zamora · 2093, El Zorzal, Temperley",
                  "lat": -34.7698072,
                  "lon": -58.3697119,
                  "cupos": 618
                },
                {
                  "orden": 7,
                  "escuela": "924 (JI)",
                  "direccion": "Senillosa 310",
                  "direccion_completa": "Senillosa, 310, Lomas de Zamora (referencia), Buenos Aires",
                  "barrio": "Lomas de Zamora · 310, Senillosa, Temperley",
                  "lat": -34.7695176,
                  "lon": -58.3693719,
                  "cupos": 130
                },
                {
                  "orden": 8,
                  "escuela": "86 (MS)",
                  "direccion": "Allemandri 1501",
                  "direccion_completa": "Allemandri, 1501, Lomas de Zamora (referencia), Buenos Aires",
                  "barrio": "Lomas de Zamora · Próspero Allemandri, Temperley",
                  "lat": -34.765873,
                  "lon": -58.378362,
                  "cupos": 355
                },
                {
                  "orden": 9,
                  "escuela": "45 (PP)",
                  "direccion": "Allemandri 1501",
                  "direccion_completa": "Allemandri, 1501, Lomas de Zamora (referencia), Buenos Aires",
                  "barrio": "Lomas de Zamora · Próspero Allemandri, Temperley",
                  "lat": -34.765873,
                  "lon": -58.378362,
                  "cupos": 224
                },
                {
                  "orden": 10,
                  "escuela": "913 (JI)",
                  "direccion": "Campos 122",
                  "direccion_completa": "Campos, 122, Lomas de Zamora (referencia), Buenos Aires",
                  "barrio": "Lomas de Zamora · General Campos, Banfield",
                  "lat": -34.755464,
                  "lon": -58.378257,
                  "cupos": 233
                },
                {
                  "orden": 11,
                  "escuela": "88 (MS)",
                  "direccion": "Campos 145 - 1ºpiso",
                  "direccion_completa": "Campos  - 1ºpiso, 145, Lomas de Zamora (referencia), Buenos Aires",
                  "barrio": "Lomas de Zamora · General Campos, 1828, General Campos",
                  "lat": -34.755195489361704,
                  "lon": -58.37815375531915,
                  "cupos": 400
                },
                {
                  "orden": 12,
                  "escuela": "73 (PP)",
                  "direccion": "Gral Campos 145",
                  "direccion_completa": "Gral Campos, 145, Lomas de Zamora (referencia), Buenos Aires",
                  "barrio": "Lomas de Zamora · General Campos, 1828, General Campos",
                  "lat": -34.755195489361704,
                  "lon": -58.37815375531915,
                  "cupos": 670
                },
                {
                  "orden": 13,
                  "escuela": "28 (PP)",
                  "direccion": "Boulogne Sur Mer 240",
                  "direccion_completa": "Boulogne Sur Mer, 240, Lomas de Zamora (referencia), Buenos Aires",
                  "barrio": "Lomas de Zamora · 240, Boulogne Sur Mer, Banfield",
                  "lat": -34.7504698,
                  "lon": -58.3715004,
                  "cupos": 190
                },
                {
                  "orden": 14,
                  "escuela": "914 (JI)",
                  "direccion": "Pintos 1695",
                  "direccion_completa": "Pintos, 1695, Lomas de Zamora (referencia), Buenos Aires",
                  "barrio": "Lomas de Zamora · General Pintos, Banfield",
                  "lat": -34.7481507,
                  "lon": -58.3741333,
                  "cupos": 125
                },
                {
                  "orden": 15,
                  "escuela": "903 (JI)",
                  "direccion": "Belgrano 1645",
                  "direccion_completa": "Belgrano, 1645, Lomas de Zamora (referencia), Buenos Aires",
                  "barrio": "Lomas de Zamora · Belgrano, Banfield",
                  "lat": -34.7432754,
                  "lon": -58.3916316,
                  "cupos": 150
                },
                {
                  "orden": 16,
                  "escuela": "904 (JI)",
                  "direccion": "Medrano 175",
                  "direccion_completa": "Medrano, 175, Lomas de Zamora (referencia), Buenos Aires",
                  "barrio": "Lomas de Zamora · Medrano, Banfield",
                  "lat": -34.7484194,
                  "lon": -58.393011,
                  "cupos": 175
                },
                {
                  "orden": 17,
                  "escuela": "916 (JI)",
                  "direccion": "Av. Alte Brown 2129",
                  "direccion_completa": "Av. Alte Brown, 2129, Lomas de Zamora (referencia), Buenos Aires",
                  "barrio": "Lomas de Zamora · Almirante Brown, 1832, Almirante Brown",
                  "lat": -34.76159410212766,
                  "lon": -58.39650139574468,
                  "cupos": 80
                },
                {
                  "orden": 18,
                  "escuela": "18A (PP)",
                  "direccion": "Espronceda 199",
                  "direccion_completa": "Espronceda, 199, Lomas de Zamora (referencia), Buenos Aires",
                  "barrio": "Lomas de Zamora · José Espronceda, Villa Albertina",
                  "lat": -34.737921,
                  "lon": -58.443867,
                  "cupos": 0
                }
              ]
            },
            {
              "viaje_n": 2,
              "cupos_cargados": 1849,
              "n_paradas": 6,
              "min_total": 116.7,
              "km": 47.223,
              "stops": [
                {
                  "orden": 1,
                  "escuela": "68 (MS)",
                  "direccion": "Alte Brown 2153",
                  "direccion_completa": "Alte Brown, 2153, Lomas de Zamora (referencia), Buenos Aires",
                  "barrio": "Lomas de Zamora · Almirante Brown, 1832, Almirante Brown",
                  "lat": -34.76183124255319,
                  "lon": -58.396520314893614,
                  "cupos": 618
                },
                {
                  "orden": 2,
                  "escuela": "13 (PP)",
                  "direccion": "Avenida Alte Brown 2153",
                  "direccion_completa": "Avenida Alte Brown, 2153, Lomas de Zamora (referencia), Buenos Aires",
                  "barrio": "Lomas de Zamora · Almirante Brown, 1832, Almirante Brown",
                  "lat": -34.76183124255319,
                  "lon": -58.396520314893614,
                  "cupos": 546
                },
                {
                  "orden": 3,
                  "escuela": "941 (JI)",
                  "direccion": "Golondrina 3607",
                  "direccion_completa": "Golondrina, 3607, Lomas de Zamora (referencia), Buenos Aires",
                  "barrio": "Lomas de Zamora · San José",
                  "lat": -34.761423,
                  "lon": -58.35192,
                  "cupos": 190
                },
                {
                  "orden": 4,
                  "escuela": "927 (JI)",
                  "direccion": "Villa Barcelo 480 Banfield Este",
                  "direccion_completa": "Villa Barcelo  Banfield Este, 480, Lomas de Zamora / alrededores, Buenos Aires",
                  "barrio": "Lomas de Zamora · Barcelona, 1827, Barcelona",
                  "lat": -34.72478017234043,
                  "lon": -58.427028770212765,
                  "cupos": 145
                },
                {
                  "orden": 5,
                  "escuela": "1134 (PP)",
                  "direccion": "Bolonia 655",
                  "direccion_completa": "Bolonia, 655, Lomas de Zamora (referencia), Buenos Aires",
                  "barrio": "Lomas de Zamora · Bolonia, Villa Centenario",
                  "lat": -34.7220859,
                  "lon": -58.4325885,
                  "cupos": 200
                },
                {
                  "orden": 6,
                  "escuela": "2437 (pp)",
                  "direccion": "Barcelona 1957",
                  "direccion_completa": "Barcelona, 1957, Lomas de Zamora (referencia), Buenos Aires",
                  "barrio": "Lomas de Zamora · Barcelona, Villa Albertina, Villa Centenario",
                  "lat": -34.7335363,
                  "lon": -58.4448484,
                  "cupos": 150
                }
              ]
            }
          ]
        },
        {
          "id": 3,
          "titulo": "Zona 3",
          "viajes": [
            {
              "viaje_n": 1,
              "cupos_cargados": 4921,
              "n_paradas": 10,
              "min_total": 139.28,
              "km": 37.496,
              "stops": [
                {
                  "orden": 1,
                  "escuela": "25 (MS)",
                  "direccion": "Presidente Perón 4002",
                  "direccion_completa": "Presidente Perón, 4002, Lomas de Zamora (referencia), Buenos Aires",
                  "barrio": "Lomas de Zamora · Parque Barón",
                  "lat": -34.7635403,
                  "lon": -58.431405,
                  "cupos": 630
                },
                {
                  "orden": 2,
                  "escuela": "38 (PP)",
                  "direccion": "Chopin 350",
                  "direccion_completa": "Chopin, 350, Lomas de Zamora (referencia), Buenos Aires",
                  "barrio": "Lomas de Zamora · 350, Frederic Chopin, Lomas de Zamora",
                  "lat": -34.7519081,
                  "lon": -58.4323987,
                  "cupos": 350
                },
                {
                  "orden": 3,
                  "escuela": "37 (MS)",
                  "direccion": "Mascagni 347",
                  "direccion_completa": "Mascagni, 347, Lomas de Zamora (referencia), Buenos Aires",
                  "barrio": "Lomas de Zamora · Pedro Mascagni, Lomas de Zamora",
                  "lat": -34.7517585,
                  "lon": -58.4329611,
                  "cupos": 700
                },
                {
                  "orden": 4,
                  "escuela": "40 SEDE (MS)",
                  "direccion": "Luis Siciliano 1551",
                  "direccion_completa": "Luis Siciliano, 1551, Lomas de Zamora (referencia), Buenos Aires",
                  "barrio": "Lomas de Zamora · Luis Siciliano, Villa Centenario",
                  "lat": -34.7392064,
                  "lon": -58.4289076,
                  "cupos": 550
                },
                {
                  "orden": 5,
                  "escuela": "76 (PP)",
                  "direccion": "Luis Siciliano 1551",
                  "direccion_completa": "Luis Siciliano, 1551, Lomas de Zamora (referencia), Buenos Aires",
                  "barrio": "Lomas de Zamora · Luis Siciliano, Villa Centenario",
                  "lat": -34.7392064,
                  "lon": -58.4289076,
                  "cupos": 600
                },
                {
                  "orden": 6,
                  "escuela": "40 EXT (MS)",
                  "direccion": "Celina de Minetto 1455",
                  "direccion_completa": "Celina de Minetto, 1455, Lomas de Zamora (referencia), Buenos Aires",
                  "barrio": "Lomas de Zamora · Celina L. de Minetto, B1828HGV, Celina L. de Minetto",
                  "lat": -34.73714012765957,
                  "lon": -58.433304265957446,
                  "cupos": 550
                },
                {
                  "orden": 7,
                  "escuela": "81 (PP)",
                  "direccion": "Celina de Minetto 1455",
                  "direccion_completa": "Celina de Minetto, 1455, Lomas de Zamora (referencia), Buenos Aires",
                  "barrio": "Lomas de Zamora · Celina L. de Minetto, B1828HGV, Celina L. de Minetto",
                  "lat": -34.73714012765957,
                  "lon": -58.433304265957446,
                  "cupos": 666
                },
                {
                  "orden": 8,
                  "escuela": "36 (MS)",
                  "direccion": "Caraza 1760",
                  "direccion_completa": "Caraza, 1760, Lomas de Zamora (referencia), Buenos Aires",
                  "barrio": "Lomas de Zamora · 1760, Eduardo Caraza, Villa Centenario",
                  "lat": -34.7340955,
                  "lon": -58.4258247,
                  "cupos": 460
                },
                {
                  "orden": 9,
                  "escuela": "39 (PP)",
                  "direccion": "Caraza 1760",
                  "direccion_completa": "Caraza, 1760, Lomas de Zamora (referencia), Buenos Aires",
                  "barrio": "Lomas de Zamora · 1760, Eduardo Caraza, Villa Centenario",
                  "lat": -34.7340955,
                  "lon": -58.4258247,
                  "cupos": 250
                },
                {
                  "orden": 10,
                  "escuela": "2097 (JI)",
                  "direccion": "El Plumerillo 769",
                  "direccion_completa": "El Plumerillo, 769, Lomas de Zamora (referencia), Buenos Aires",
                  "barrio": "Lomas de Zamora · El Plumerillo, Villa Centenario",
                  "lat": -34.7209775,
                  "lon": -58.428858,
                  "cupos": 165
                }
              ]
            },
            {
              "viaje_n": 2,
              "cupos_cargados": 4999,
              "n_paradas": 6,
              "min_total": 99.87,
              "km": 38.087,
              "stops": [
                {
                  "orden": 1,
                  "escuela": "11 (MS)",
                  "direccion": "Campana 524/534",
                  "direccion_completa": "Campana /534, 524, Lomas de Zamora (referencia), Buenos Aires",
                  "barrio": "Lomas de Zamora",
                  "lat": -34.7527522,
                  "lon": -58.4082001,
                  "cupos": 1102
                },
                {
                  "orden": 2,
                  "escuela": "19 (PP)",
                  "direccion": "Gabriela Mistral 312",
                  "direccion_completa": "Gabriela Mistral, 312, Lomas de Zamora (referencia), Buenos Aires",
                  "barrio": "Lomas de Zamora · Gabriela Mistral, Villa Centenario",
                  "lat": -34.7295589,
                  "lon": -58.4205511,
                  "cupos": 558
                },
                {
                  "orden": 3,
                  "escuela": "2645 (PP)",
                  "direccion": "Ostende y Labarden S/Nro",
                  "direccion_completa": "Ostende y Labarden S/Nro, , Lomas de Zamora (referencia), Buenos Aires",
                  "barrio": "Lomas de Zamora · Gaspar Núñez de Arce, 1827, Gaspar Núñez de Arce",
                  "lat": -34.7242316,
                  "lon": -58.4408936,
                  "cupos": 500
                },
                {
                  "orden": 4,
                  "escuela": "30 (MS)",
                  "direccion": "Bucarest 1722",
                  "direccion_completa": "Bucarest, 1722, Lomas de Zamora (referencia), Buenos Aires",
                  "barrio": "Lomas de Zamora · Bucarest, Villa Albertina, Ingeniero Budge",
                  "lat": -34.7259688,
                  "lon": -58.4466946,
                  "cupos": 1120
                },
                {
                  "orden": 5,
                  "escuela": "88 (PP)",
                  "direccion": "Bucarest 1722",
                  "direccion_completa": "Bucarest, 1722, Lomas de Zamora (referencia), Buenos Aires",
                  "barrio": "Lomas de Zamora · Bucarest, Villa Albertina, Ingeniero Budge",
                  "lat": -34.7259688,
                  "lon": -58.4466946,
                  "cupos": 919
                },
                {
                  "orden": 6,
                  "escuela": "77 (PP)",
                  "direccion": "Bucarest 1780",
                  "direccion_completa": "Bucarest, 1780, Lomas de Zamora (referencia), Buenos Aires",
                  "barrio": "Lomas de Zamora · Bucarest, Villa Albertina, Ingeniero Budge",
                  "lat": -34.7262642,
                  "lon": -58.4472674,
                  "cupos": 800
                }
              ]
            },
            {
              "viaje_n": 3,
              "cupos_cargados": 4783,
              "n_paradas": 4,
              "min_total": 65.75,
              "km": 28.408,
              "stops": [
                {
                  "orden": 1,
                  "escuela": "71 (MS)",
                  "direccion": "Facundo Quiroga 1370",
                  "direccion_completa": "Facundo Quiroga, 1370, Lomas de Zamora (referencia), Buenos Aires",
                  "barrio": "Lomas de Zamora · Santa Catalina",
                  "lat": -34.7484838,
                  "lon": -58.473543,
                  "cupos": 940
                },
                {
                  "orden": 2,
                  "escuela": "94 (PP)",
                  "direccion": "Facundo Quiroga 1370 Santa Catalina",
                  "direccion_completa": "Facundo Quiroga  Santa Catalina, 1370, Lomas de Zamora (referencia), Buenos Aires",
                  "barrio": "Lomas de Zamora · Santa Catalina",
                  "lat": -34.7484838,
                  "lon": -58.473543,
                  "cupos": 1577
                },
                {
                  "orden": 3,
                  "escuela": "32 (MS)",
                  "direccion": "Manuela Pedraza 3280",
                  "direccion_completa": "Manuela Pedraza, 3280, Lomas de Zamora (referencia), Buenos Aires",
                  "barrio": "Lomas de Zamora · Santa Catalina",
                  "lat": -34.7459645,
                  "lon": -58.4698924,
                  "cupos": 950
                },
                {
                  "orden": 4,
                  "escuela": "9 (MT)",
                  "direccion": "Soldado Rodriguez 1299",
                  "direccion_completa": "Soldado Rodriguez, 1299, Lomas de Zamora (referencia), Buenos Aires",
                  "barrio": "Lomas de Zamora · Santa Catalina",
                  "lat": -34.7415615,
                  "lon": -58.4724719,
                  "cupos": 1316
                }
              ]
            },
            {
              "viaje_n": 4,
              "cupos_cargados": 4635,
              "n_paradas": 5,
              "min_total": 100.21,
              "km": 45.85,
              "stops": [
                {
                  "orden": 1,
                  "escuela": "508 (EE)",
                  "direccion": "Espronceda 150",
                  "direccion_completa": "Espronceda, 150, Lomas de Zamora (referencia), Buenos Aires",
                  "barrio": "Lomas de Zamora · 150, José Espronceda, Villa Albertina, Banfield",
                  "lat": -34.7388792,
                  "lon": -58.4435356,
                  "cupos": 405
                },
                {
                  "orden": 2,
                  "escuela": "92 (PP)",
                  "direccion": "Soldado Britos 1451 Santa Catalina",
                  "direccion_completa": "Soldado Britos  Santa Catalina, 1451, Lomas de Zamora (referencia), Buenos Aires",
                  "barrio": "Lomas de Zamora · Soldado M. A. Zelarrayán, 1832, Soldado M. A. Zelarrayán",
                  "lat": -34.7426989,
                  "lon": -58.4693588,
                  "cupos": 1724
                },
                {
                  "orden": 3,
                  "escuela": "79 (PP)",
                  "direccion": "Azamor 297",
                  "direccion_completa": "Azamor, 297, Lomas de Zamora (referencia), Buenos Aires",
                  "barrio": "Lomas de Zamora · Ingeniero Budge",
                  "lat": -34.7153972,
                  "lon": -58.4685876,
                  "cupos": 665
                },
                {
                  "orden": 4,
                  "escuela": "67 (MS)",
                  "direccion": "Campana 360 Fiorito",
                  "direccion_completa": "Campana  Fiorito, 360, Lomas de Zamora (referencia), Buenos Aires",
                  "barrio": "Lomas de Zamora · Villa Fiorito",
                  "lat": -34.7053968,
                  "lon": -58.4417674,
                  "cupos": 751
                },
                {
                  "orden": 5,
                  "escuela": "63 (PP)",
                  "direccion": "Campana 360 Fiorito",
                  "direccion_completa": "Campana  Fiorito, 360, Lomas de Zamora (referencia), Buenos Aires",
                  "barrio": "Lomas de Zamora · Villa Fiorito",
                  "lat": -34.7053968,
                  "lon": -58.4417674,
                  "cupos": 1090
                }
              ]
            },
            {
              "viaje_n": 5,
              "cupos_cargados": 810,
              "n_paradas": 1,
              "min_total": 47.75,
              "km": 42.147,
              "stops": [
                {
                  "orden": 1,
                  "escuela": "98 (PP)",
                  "direccion": "Larrazabal 2879 Fiorito",
                  "direccion_completa": "Larrazabal  Fiorito, 2879, Lomas de Zamora (referencia), Buenos Aires",
                  "barrio": "Lomas de Zamora · 2879, Larrazábal, Villa Fiorito",
                  "lat": -34.6974909,
                  "lon": -58.4445135,
                  "cupos": 810
                }
              ]
            }
          ]
        },
        {
          "id": 4,
          "titulo": "Zona 4",
          "viajes": [
            {
              "viaje_n": 1,
              "cupos_cargados": 4869,
              "n_paradas": 6,
              "min_total": 110.56,
              "km": 46.011,
              "stops": [
                {
                  "orden": 1,
                  "escuela": "26 (PP)",
                  "direccion": "Los Robles 108",
                  "direccion_completa": "Los Robles, 108, Lomas de Zamora (referencia), Buenos Aires",
                  "barrio": "Lomas de Zamora · 108, Los Robles, Parque Barón, Lomas de Zamora",
                  "lat": -34.7652091,
                  "lon": -58.4315099,
                  "cupos": 920
                },
                {
                  "orden": 2,
                  "escuela": "13 (MS)",
                  "direccion": "Hipolito Yrigoyen 9428",
                  "direccion_completa": "Hipolito Yrigoyen, 9428, Lomas de Zamora (referencia), Buenos Aires",
                  "barrio": "Lomas de Zamora · 9428, Avenida Hipólito Yrigoyen, Lomitas, Lomas de Zamora",
                  "lat": -34.7654586,
                  "lon": -58.4034059,
                  "cupos": 1100
                },
                {
                  "orden": 3,
                  "escuela": "1 (MT)",
                  "direccion": "Manuel Castro 161",
                  "direccion_completa": "Manuel Castro, 161, Lomas de Zamora (referencia), Buenos Aires",
                  "barrio": "Lomas de Zamora · Senador Manuel Castro, Lomitas, Lomas de Zamora",
                  "lat": -34.7582812,
                  "lon": -58.4035202,
                  "cupos": 1400
                },
                {
                  "orden": 4,
                  "escuela": "7 (MS)",
                  "direccion": "Saenz 450",
                  "direccion_completa": "Saenz, 450, Lomas de Zamora (referencia), Buenos Aires",
                  "barrio": "Lomas de Zamora · Antonio Sáenz, Lomitas, Lomas de Zamora",
                  "lat": -34.7580002,
                  "lon": -58.4027798,
                  "cupos": 849
                },
                {
                  "orden": 5,
                  "escuela": "1 (PP)",
                  "direccion": "Sáenz 450",
                  "direccion_completa": "Sáenz, 450, Lomas de Zamora (referencia), Buenos Aires",
                  "barrio": "Lomas de Zamora · Antonio Sáenz, Lomitas, Lomas de Zamora",
                  "lat": -34.7580002,
                  "lon": -58.4027798,
                  "cupos": 350
                },
                {
                  "orden": 6,
                  "escuela": "73 (MS)",
                  "direccion": "Pilar 120",
                  "direccion_completa": "Pilar, 120, Lomas de Zamora (referencia), Buenos Aires",
                  "barrio": "Lomas de Zamora · Villa Fiorito",
                  "lat": -34.7024067,
                  "lon": -58.4402477,
                  "cupos": 250
                }
              ]
            },
            {
              "viaje_n": 2,
              "cupos_cargados": 4592,
              "n_paradas": 4,
              "min_total": 81.04,
              "km": 35.882,
              "stops": [
                {
                  "orden": 1,
                  "escuela": "15 (MS)",
                  "direccion": "Dr Carlos Piocollivadino 267",
                  "direccion_completa": "Dr Carlos Piocollivadino, 267, Lomas de Zamora (referencia), Buenos Aires",
                  "barrio": "Lomas de Zamora · Ignacio Pirovano, 1832, Ignacio Pirovano",
                  "lat": -34.75817462340425,
                  "lon": -58.38674770425532,
                  "cupos": 980
                },
                {
                  "orden": 2,
                  "escuela": "6 (MT)",
                  "direccion": "Gascon 150",
                  "direccion_completa": "Gascon, 150, Lomas de Zamora (referencia), Buenos Aires",
                  "barrio": "Lomas de Zamora · Gascón, Banfield",
                  "lat": -34.7470736,
                  "lon": -58.3930963,
                  "cupos": 2392
                },
                {
                  "orden": 3,
                  "escuela": "12 (MS)",
                  "direccion": "Alberto Larroque 150",
                  "direccion_completa": "Alberto Larroque, 150, Lomas de Zamora (referencia), Buenos Aires",
                  "barrio": "Lomas de Zamora · Avenida Alberto Larroque, Banfield",
                  "lat": -34.7452523,
                  "lon": -58.3971841,
                  "cupos": 680
                },
                {
                  "orden": 4,
                  "escuela": "97 (PP)",
                  "direccion": "Vernet 281",
                  "direccion_completa": "Vernet, 281, Lomas de Zamora (referencia), Buenos Aires",
                  "barrio": "Lomas de Zamora · Vernet, Villa Centenario",
                  "lat": -34.7297857,
                  "lon": -58.4196105,
                  "cupos": 540
                }
              ]
            },
            {
              "viaje_n": 3,
              "cupos_cargados": 4280,
              "n_paradas": 4,
              "min_total": 91.83,
              "km": 46.588,
              "stops": [
                {
                  "orden": 1,
                  "escuela": "3 (MT)",
                  "direccion": "El Tordo 459",
                  "direccion_completa": "El Tordo, 459, Lomas de Zamora (referencia), Buenos Aires",
                  "barrio": "Lomas de Zamora · San José",
                  "lat": -34.7603175,
                  "lon": -58.3535844,
                  "cupos": 1500
                },
                {
                  "orden": 2,
                  "escuela": "4 (MS)",
                  "direccion": "Larroque 2175",
                  "direccion_completa": "Larroque, 2175, Lomas de Zamora (referencia), Buenos Aires",
                  "barrio": "Lomas de Zamora · 2175, Alberto Larroque, Villa Centenario",
                  "lat": -34.7409839,
                  "lon": -58.4266814,
                  "cupos": 1100
                },
                {
                  "orden": 3,
                  "escuela": "8 (MT)",
                  "direccion": "Pio Baroja 1802",
                  "direccion_completa": "Pio Baroja, 1802, Lomas de Zamora (referencia), Buenos Aires",
                  "barrio": "Lomas de Zamora · Villa Centenario",
                  "lat": -34.7288122,
                  "lon": -58.4342531,
                  "cupos": 1000
                },
                {
                  "orden": 4,
                  "escuela": "926 (JI)",
                  "direccion": "Pio Baroja 2054",
                  "direccion_completa": "Pio Baroja, 2054, Lomas de Zamora (referencia), Buenos Aires",
                  "barrio": "Lomas de Zamora · Villa Fiorito",
                  "lat": -34.7112413,
                  "lon": -58.4484172,
                  "cupos": 680
                }
              ]
            },
            {
              "viaje_n": 4,
              "cupos_cargados": 4190,
              "n_paradas": 4,
              "min_total": 77.27,
              "km": 38.092,
              "stops": [
                {
                  "orden": 1,
                  "escuela": "83 (MS)",
                  "direccion": "Quesada 2610",
                  "direccion_completa": "Quesada, 2610, Lomas de Zamora (referencia), Buenos Aires",
                  "barrio": "Lomas de Zamora · Quesada, Ingeniero Budge",
                  "lat": -34.7248631,
                  "lon": -58.462946,
                  "cupos": 980
                },
                {
                  "orden": 2,
                  "escuela": "22 (MS)",
                  "direccion": "Gabriel Miro 2480",
                  "direccion_completa": "Gabriel Miro, 2480, Lomas de Zamora (referencia), Buenos Aires",
                  "barrio": "Lomas de Zamora · Villa Fiorito",
                  "lat": -34.7099959,
                  "lon": -58.4507691,
                  "cupos": 1260
                },
                {
                  "orden": 3,
                  "escuela": "90 (PP)",
                  "direccion": "Gabriel Miro 2450",
                  "direccion_completa": "Gabriel Miro, 2450, Lomas de Zamora (referencia), Buenos Aires",
                  "barrio": "Lomas de Zamora · Villa Fiorito",
                  "lat": -34.7099959,
                  "lon": -58.4507691,
                  "cupos": 750
                },
                {
                  "orden": 4,
                  "escuela": "85 (PP)",
                  "direccion": "B.P. GaldosS 1998",
                  "direccion_completa": "B.P. GaldosS, 1998, Lomas de Zamora (referencia), Buenos Aires",
                  "barrio": "Lomas de Zamora · Villa Fiorito",
                  "lat": -34.7083792,
                  "lon": -58.4490397,
                  "cupos": 1200
                }
              ]
            },
            {
              "viaje_n": 5,
              "cupos_cargados": 2220,
              "n_paradas": 2,
              "min_total": 56.61,
              "km": 40.179,
              "stops": [
                {
                  "orden": 1,
                  "escuela": "67 (PP)",
                  "direccion": "Pio Baroja2098",
                  "direccion_completa": "Pio Baroja, 2098, Lomas de Zamora (referencia), Buenos Aires",
                  "barrio": "Lomas de Zamora · Villa Fiorito",
                  "lat": -34.7112413,
                  "lon": -58.4484172,
                  "cupos": 1300
                },
                {
                  "orden": 2,
                  "escuela": "86 (PP)",
                  "direccion": "Pilar 120",
                  "direccion_completa": "Pilar, 120, Lomas de Zamora (referencia), Buenos Aires",
                  "barrio": "Lomas de Zamora · Villa Fiorito",
                  "lat": -34.7024067,
                  "lon": -58.4402477,
                  "cupos": 920
                }
              ]
            }
          ]
        },
        {
          "id": 5,
          "titulo": "Zona 5",
          "viajes": [
            {
              "viaje_n": 1,
              "cupos_cargados": 4901,
              "n_paradas": 9,
              "min_total": 126.36,
              "km": 33.805,
              "stops": [
                {
                  "orden": 1,
                  "escuela": "84 (MS)",
                  "direccion": "Dr. Melber 2070",
                  "direccion_completa": "Dr. Melber, 2070, Lomas de Zamora (referencia), Buenos Aires",
                  "barrio": "Lomas de Zamora · Llavallol",
                  "lat": -34.8080774,
                  "lon": -58.424879,
                  "cupos": 472
                },
                {
                  "orden": 2,
                  "escuela": "23 (PP)",
                  "direccion": "Dr. Melber 2070",
                  "direccion_completa": "Dr. Melber, 2070, Lomas de Zamora (referencia), Buenos Aires",
                  "barrio": "Lomas de Zamora · Llavallol",
                  "lat": -34.8080774,
                  "lon": -58.424879,
                  "cupos": 688
                },
                {
                  "orden": 3,
                  "escuela": "34 (PP)",
                  "direccion": "Dr. Melber 2050",
                  "direccion_completa": "Dr. Melber, 2050, Lomas de Zamora (referencia), Buenos Aires",
                  "barrio": "Lomas de Zamora · Llavallol",
                  "lat": -34.8080774,
                  "lon": -58.424879,
                  "cupos": 700
                },
                {
                  "orden": 4,
                  "escuela": "51 (MS)",
                  "direccion": "Mercedes 450",
                  "direccion_completa": "Mercedes, 450, Lomas de Zamora (referencia), Buenos Aires",
                  "barrio": "Lomas de Zamora · Llavallol",
                  "lat": -34.807104,
                  "lon": -58.421091,
                  "cupos": 774
                },
                {
                  "orden": 5,
                  "escuela": "915 (JI)",
                  "direccion": "Santos Vega y Pareta",
                  "direccion_completa": "Santos Vega y Pareta, , Lomas de Zamora (referencia), Buenos Aires",
                  "barrio": "Lomas de Zamora · 1851, Llavallol, Buenos Aires",
                  "lat": -34.8066373,
                  "lon": -58.4286211,
                  "cupos": 200
                },
                {
                  "orden": 6,
                  "escuela": "3 (MS)",
                  "direccion": "San Blas 309",
                  "direccion_completa": "San Blas, 309, Lomas de Zamora (referencia), Buenos Aires",
                  "barrio": "Lomas de Zamora · Turdera",
                  "lat": -34.7884916,
                  "lon": -58.415456,
                  "cupos": 1110
                },
                {
                  "orden": 7,
                  "escuela": "35 (PP)",
                  "direccion": "San Blas 351",
                  "direccion_completa": "San Blas, 351, Lomas de Zamora (referencia), Buenos Aires",
                  "barrio": "Lomas de Zamora · Temperley",
                  "lat": -34.7839257,
                  "lon": -58.4189399,
                  "cupos": 241
                },
                {
                  "orden": 8,
                  "escuela": "29 (PP)",
                  "direccion": "Molina Arrotea 1505",
                  "direccion_completa": "Molina Arrotea, 1505, Lomas de Zamora (referencia), Buenos Aires",
                  "barrio": "Lomas de Zamora · Avenida Carlos Molina Arrotea, Lomas de Zamora",
                  "lat": -34.7662836,
                  "lon": -58.4205757,
                  "cupos": 432
                },
                {
                  "orden": 9,
                  "escuela": "4 (JI CC)",
                  "direccion": "Martin Rodriguez 2244",
                  "direccion_completa": "Martin Rodriguez, 2244, Lomas de Zamora (referencia), Buenos Aires",
                  "barrio": "Lomas de Zamora · Avenida General Martín Rodríguez, Barrio ODISA, Santa Marta, Villa Centenario",
                  "lat": -34.7412514,
                  "lon": -58.443969,
                  "cupos": 284
                }
              ]
            },
            {
              "viaje_n": 2,
              "cupos_cargados": 3783,
              "n_paradas": 9,
              "min_total": 162.44,
              "km": 56.926,
              "stops": [
                {
                  "orden": 1,
                  "escuela": "14 (MS)",
                  "direccion": "Sta Maria de Oro 44",
                  "direccion_completa": "Sta Maria de Oro, 44, Lomas de Zamora (referencia), Buenos Aires",
                  "barrio": "Lomas de Zamora · 44, Fray Justo Santa María de Oro, Temperley",
                  "lat": -34.7753118,
                  "lon": -58.3951084,
                  "cupos": 863
                },
                {
                  "orden": 2,
                  "escuela": "80 (Extensión)",
                  "direccion": "Piaggio 402",
                  "direccion_completa": "Piaggio, 402, Lomas de Zamora (referencia), Buenos Aires",
                  "barrio": "Lomas de Zamora · Monseñor Piaggio, Lomas de Zamora",
                  "lat": -34.7645,
                  "lon": -58.409355,
                  "cupos": 568
                },
                {
                  "orden": 3,
                  "escuela": "80 (MS)",
                  "direccion": "Piaggio 402",
                  "direccion_completa": "Piaggio, 402, Lomas de Zamora (referencia), Buenos Aires",
                  "barrio": "Lomas de Zamora · Monseñor Piaggio, Lomas de Zamora",
                  "lat": -34.7645,
                  "lon": -58.409355,
                  "cupos": 595
                },
                {
                  "orden": 4,
                  "escuela": "8 (PP)",
                  "direccion": "Piaggio 402",
                  "direccion_completa": "Piaggio, 402, Lomas de Zamora (referencia), Buenos Aires",
                  "barrio": "Lomas de Zamora · Monseñor Piaggio, Lomas de Zamora",
                  "lat": -34.7645,
                  "lon": -58.409355,
                  "cupos": 391
                },
                {
                  "orden": 5,
                  "escuela": "1380 (JI)",
                  "direccion": "Anchorena 1460",
                  "direccion_completa": "Anchorena, 1460, Lomas de Zamora (referencia), Buenos Aires",
                  "barrio": "Lomas de Zamora · Anchorena, Temperley",
                  "lat": -34.7652401,
                  "lon": -58.3796219,
                  "cupos": 120
                },
                {
                  "orden": 6,
                  "escuela": "61 (MS)",
                  "direccion": "MIguel Cané 1264",
                  "direccion_completa": "MIguel Cané, 1264, Lomas de Zamora (referencia), Buenos Aires",
                  "barrio": "Lomas de Zamora · Miguel Cané, Banfield",
                  "lat": -34.749442,
                  "lon": -58.379099,
                  "cupos": 350
                },
                {
                  "orden": 7,
                  "escuela": "10 (PP)",
                  "direccion": "Pueyrredón 1840",
                  "direccion_completa": "Pueyrredón, 1840, Lomas de Zamora (referencia), Buenos Aires",
                  "barrio": "Lomas de Zamora · Pueyrredón, Banfield",
                  "lat": -34.7397238,
                  "lon": -58.3894683,
                  "cupos": 400
                },
                {
                  "orden": 8,
                  "escuela": "923 (JI)",
                  "direccion": "Moctezuma 498 San Jose Este",
                  "direccion_completa": "Moctezuma  San Jose Este, 498, Lomas de Zamora (referencia), Buenos Aires",
                  "barrio": "Lomas de Zamora · B1844, San José, Buenos Aires",
                  "lat": -34.7501332,
                  "lon": -58.3485061,
                  "cupos": 198
                },
                {
                  "orden": 9,
                  "escuela": "30 (PP)",
                  "direccion": "Bucarest 1722",
                  "direccion_completa": "Bucarest, 1722, Lomas de Zamora (referencia), Buenos Aires",
                  "barrio": "Lomas de Zamora · Bucarest, Villa Albertina, Ingeniero Budge",
                  "lat": -34.7259688,
                  "lon": -58.4466946,
                  "cupos": 298
                }
              ]
            }
          ]
        },
        {
          "id": 6,
          "titulo": "Zona 6",
          "viajes": [
            {
              "viaje_n": 1,
              "cupos_cargados": 4880,
              "n_paradas": 14,
              "min_total": 226.48,
              "km": 63.831,
              "stops": [
                {
                  "orden": 1,
                  "escuela": "920 (JI)",
                  "direccion": "Araguaya 957",
                  "direccion_completa": "Araguaya, 957, Lomas de Zamora (referencia), Buenos Aires",
                  "barrio": "Lomas de Zamora · Llavallol",
                  "lat": -34.7883504,
                  "lon": -58.4208008,
                  "cupos": 114
                },
                {
                  "orden": 2,
                  "escuela": "928 (JI)",
                  "direccion": "24 de Mayo 649",
                  "direccion_completa": "24 de Mayo, 649, Lomas de Zamora (referencia), Buenos Aires",
                  "barrio": "Lomas de Zamora · 24 de Mayo, Lomas de Zamora",
                  "lat": -34.7657711,
                  "lon": -58.4203864,
                  "cupos": 139
                },
                {
                  "orden": 3,
                  "escuela": "501 (EE)",
                  "direccion": "Laprida 1573",
                  "direccion_completa": "Laprida, 1573, Lomas de Zamora (referencia), Buenos Aires",
                  "barrio": "Lomas de Zamora · Francisco Narciso de Laprida, Lomitas, Lomas de Zamora",
                  "lat": -34.7579547,
                  "lon": -58.419562,
                  "cupos": 370
                },
                {
                  "orden": 4,
                  "escuela": "931 (JI)",
                  "direccion": "Jacinto Benavente 498",
                  "direccion_completa": "Jacinto Benavente, 498, Lomas de Zamora (referencia), Buenos Aires",
                  "barrio": "Lomas de Zamora · Jacinto Benavente, Parque Barón",
                  "lat": -34.7600346,
                  "lon": -58.4342658,
                  "cupos": 98
                },
                {
                  "orden": 5,
                  "escuela": "53 (MS)",
                  "direccion": "Mentruyt 1825",
                  "direccion_completa": "Mentruyt, 1825, Lomas de Zamora (referencia), Buenos Aires",
                  "barrio": "Lomas de Zamora · 44, Italia, Lomitas, Lomas de Zamora",
                  "lat": -34.7611377,
                  "lon": -58.4010405,
                  "cupos": 215
                },
                {
                  "orden": 6,
                  "escuela": "921 (JI)",
                  "direccion": "Juan Zamora y Gabriela Mistral 653",
                  "direccion_completa": "Juan Zamora y Gabriela Mistral, 653, Lomas de Zamora (referencia), Buenos Aires",
                  "barrio": "Lomas de Zamora · Juan B. Péreuilh, 1834, Juan B. Péreuilh",
                  "lat": -34.7760296,
                  "lon": -58.396796,
                  "cupos": 278
                },
                {
                  "orden": 7,
                  "escuela": "56 (PP)",
                  "direccion": "El Tordo 233",
                  "direccion_completa": "El Tordo, 233, Lomas de Zamora (referencia), Buenos Aires",
                  "barrio": "Lomas de Zamora · San José",
                  "lat": -34.7603175,
                  "lon": -58.3535844,
                  "cupos": 896
                },
                {
                  "orden": 8,
                  "escuela": "33 (PP)",
                  "direccion": "Supe 1824",
                  "direccion_completa": "Supe, 1824, Lomas de Zamora (referencia), Buenos Aires",
                  "barrio": "Lomas de Zamora · Banfield",
                  "lat": -34.736825,
                  "lon": -58.4112657,
                  "cupos": 376
                },
                {
                  "orden": 9,
                  "escuela": "907 (JI)",
                  "direccion": "Araoz 1450",
                  "direccion_completa": "Araoz, 1450, Lomas de Zamora (referencia), Buenos Aires",
                  "barrio": "Lomas de Zamora · Aráoz, Banfield",
                  "lat": -34.733857,
                  "lon": -58.41478,
                  "cupos": 134
                },
                {
                  "orden": 10,
                  "escuela": "1009 (PP)",
                  "direccion": "El Plumerillo 769",
                  "direccion_completa": "El Plumerillo, 769, Lomas de Zamora (referencia), Buenos Aires",
                  "barrio": "Lomas de Zamora · El Plumerillo, Villa Centenario",
                  "lat": -34.7209775,
                  "lon": -58.428858,
                  "cupos": 250
                },
                {
                  "orden": 11,
                  "escuela": "43 (MS)",
                  "direccion": "Morazan s/n entre Islandia y Australia",
                  "direccion_completa": "Morazan s/n entre Islandia y Australia, , Lomas de Zamora (referencia), Buenos Aires",
                  "barrio": "Lomas de Zamora · Francisco de Morazán, 1827, Francisco de Morazán",
                  "lat": -34.7158223,
                  "lon": -58.4379927,
                  "cupos": 600
                },
                {
                  "orden": 12,
                  "escuela": "44 (PP)",
                  "direccion": "Islandia 650",
                  "direccion_completa": "Islandia, 650, Lomas de Zamora (referencia), Buenos Aires",
                  "barrio": "Lomas de Zamora · Villa Fiorito",
                  "lat": -34.7183016,
                  "lon": -58.4423069,
                  "cupos": 700
                },
                {
                  "orden": 13,
                  "escuela": "74 (MS)",
                  "direccion": "Ejercto de los Andes 1318",
                  "direccion_completa": "Ejercto de los Andes, 1318, Lomas de Zamora (referencia), Buenos Aires",
                  "barrio": "Lomas de Zamora · Ejército de los Andes, 1827, Ejército de los Andes",
                  "lat": -34.721747593617025,
                  "lon": -58.44322211276595,
                  "cupos": 600
                },
                {
                  "orden": 14,
                  "escuela": "6 (JI CC)",
                  "direccion": "Mario Bravo 2133",
                  "direccion_completa": "Mario Bravo, 2133, Lomas de Zamora (referencia), Buenos Aires",
                  "barrio": "Lomas de Zamora · Villa Fiorito",
                  "lat": -34.7024082,
                  "lon": -58.4455352,
                  "cupos": 110
                }
              ]
            },
            {
              "viaje_n": 2,
              "cupos_cargados": 2642,
              "n_paradas": 5,
              "min_total": 94.35,
              "km": 41.185,
              "stops": [
                {
                  "orden": 1,
                  "escuela": "84 (PP)",
                  "direccion": "Núñez de Arce 1296",
                  "direccion_completa": "Núñez de Arce, 1296, Lomas de Zamora (referencia), Buenos Aires",
                  "barrio": "Lomas de Zamora · Gaspar Núñez de Arce, Villa Centenario",
                  "lat": -34.7225621,
                  "lon": -58.4423637,
                  "cupos": 861
                },
                {
                  "orden": 2,
                  "escuela": "934 (JI)",
                  "direccion": "Campana 1216",
                  "direccion_completa": "Campana, 1216, Lomas de Zamora (referencia), Buenos Aires",
                  "barrio": "Lomas de Zamora · Villa Fiorito",
                  "lat": -34.7053968,
                  "lon": -58.4417674,
                  "cupos": 417
                },
                {
                  "orden": 3,
                  "escuela": "805 (CEC)",
                  "direccion": "Azamor 232",
                  "direccion_completa": "Azamor, 232, Lomas de Zamora (referencia), Buenos Aires",
                  "barrio": "Lomas de Zamora · Ingeniero Budge",
                  "lat": -34.7117377,
                  "lon": -58.4620268,
                  "cupos": 559
                },
                {
                  "orden": 4,
                  "escuela": "60 (MS)",
                  "direccion": "Laprida 1650",
                  "direccion_completa": "Laprida, 1650, Lomas de Zamora (referencia), Buenos Aires",
                  "barrio": "Lomas de Zamora · Santa Catalina",
                  "lat": -34.7298585,
                  "lon": -58.4834842,
                  "cupos": 153
                },
                {
                  "orden": 5,
                  "escuela": "27 (PP)",
                  "direccion": "Laprida 1650",
                  "direccion_completa": "Laprida, 1650, Lomas de Zamora (referencia), Buenos Aires",
                  "barrio": "Lomas de Zamora · Santa Catalina",
                  "lat": -34.7298585,
                  "lon": -58.4834842,
                  "cupos": 652
                }
              ]
            }
          ]
        },
        {
          "id": 7,
          "titulo": "Zona 7",
          "viajes": [
            {
              "viaje_n": 1,
              "cupos_cargados": 4996,
              "n_paradas": 11,
              "min_total": 165.44,
              "km": 41.018,
              "stops": [
                {
                  "orden": 1,
                  "escuela": "75 (PP)",
                  "direccion": "F.Sanchéz 1311",
                  "direccion_completa": "F.Sanchéz, 1311, Lomas de Zamora (referencia), Buenos Aires",
                  "barrio": "Lomas de Zamora · Temperley",
                  "lat": -34.7873503,
                  "lon": -58.3910264,
                  "cupos": 580
                },
                {
                  "orden": 2,
                  "escuela": "3 (PP)",
                  "direccion": "Av. Hipólito Yrigoyen 10361",
                  "direccion_completa": "Av. Hipólito Yrigoyen, 10361, Lomas de Zamora (referencia), Buenos Aires",
                  "barrio": "Lomas de Zamora · Avenida Hipólito Yrigoyen, Temperley",
                  "lat": -34.7775072,
                  "lon": -58.4059369,
                  "cupos": 194
                },
                {
                  "orden": 3,
                  "escuela": "2 (MT)",
                  "direccion": "Lavalle 801",
                  "direccion_completa": "Lavalle, 801, Lomas de Zamora (referencia), Buenos Aires",
                  "barrio": "Lomas de Zamora · 801, General Juan Galo de Lavalle, Temperley",
                  "lat": -34.7765862,
                  "lon": -58.4084325,
                  "cupos": 700
                },
                {
                  "orden": 4,
                  "escuela": "5 (MT)",
                  "direccion": "Pringles 27",
                  "direccion_completa": "Pringles, 27, Lomas de Zamora (referencia), Buenos Aires",
                  "barrio": "Lomas de Zamora · Temperley",
                  "lat": -34.7761611,
                  "lon": -58.4117487,
                  "cupos": 1827
                },
                {
                  "orden": 5,
                  "escuela": "506 (EE)",
                  "direccion": "Ramon Falcon 780",
                  "direccion_completa": "Ramon Falcon, 780, Lomas de Zamora (referencia), Buenos Aires",
                  "barrio": "Lomas de Zamora · 780, Coronel Ramón Falcón, Lomitas, Lomas de Zamora",
                  "lat": -34.7668979,
                  "lon": -58.409431,
                  "cupos": 140
                },
                {
                  "orden": 6,
                  "escuela": "507 (EE)",
                  "direccion": "Pasaje González 40",
                  "direccion_completa": "Pasaje González, 40, Lomas de Zamora (referencia), Buenos Aires",
                  "barrio": "Lomas de Zamora · María F. González, 1870, María F. González",
                  "lat": -34.76315005319149,
                  "lon": -58.40399767446809,
                  "cupos": 146
                },
                {
                  "orden": 7,
                  "escuela": "59 (MS)",
                  "direccion": "Castelli 816",
                  "direccion_completa": "Castelli, 816, Lomas de Zamora (referencia), Buenos Aires",
                  "barrio": "Lomas de Zamora · 816, Juan José Castelli, Lomas de Zamora",
                  "lat": -34.7526559,
                  "lon": -58.4071969,
                  "cupos": 500
                },
                {
                  "orden": 8,
                  "escuela": "14 (PP)",
                  "direccion": "Castelli 816",
                  "direccion_completa": "Castelli, 816, Lomas de Zamora (referencia), Buenos Aires",
                  "barrio": "Lomas de Zamora · 816, Juan José Castelli, Lomas de Zamora",
                  "lat": -34.7526559,
                  "lon": -58.4071969,
                  "cupos": 449
                },
                {
                  "orden": 9,
                  "escuela": "64 (MS)",
                  "direccion": "Santa Fe 550",
                  "direccion_completa": "Santa Fe, 550, Lomas de Zamora (referencia), Buenos Aires",
                  "barrio": "Lomas de Zamora · Avenida Santa Fe, Lomas de Zamora",
                  "lat": -34.7511557,
                  "lon": -58.4197747,
                  "cupos": 360
                },
                {
                  "orden": 10,
                  "escuela": "69 (MS)",
                  "direccion": "Alsina 1052",
                  "direccion_completa": "Alsina, 1052, Lomas de Zamora (referencia), Buenos Aires",
                  "barrio": "Lomas de Zamora · Avenida Alsina, Banfield",
                  "lat": -34.7450554,
                  "lon": -58.3933776,
                  "cupos": 100
                },
                {
                  "orden": 11,
                  "escuela": "25 (PP)",
                  "direccion": "El Zorzal 2793",
                  "direccion_completa": "El Zorzal, 2793, Lomas de Zamora (referencia), Buenos Aires",
                  "barrio": "Lomas de Zamora · San José",
                  "lat": -34.7607873,
                  "lon": -58.3523241,
                  "cupos": 0
                }
              ]
            },
            {
              "viaje_n": 2,
              "cupos_cargados": 4969,
              "n_paradas": 9,
              "min_total": 127.21,
              "km": 32.708,
              "stops": [
                {
                  "orden": 1,
                  "escuela": "949 (JI)",
                  "direccion": "Año del Libertador 206",
                  "direccion_completa": "Año del Libertador, 206, Lomas de Zamora (referencia), Buenos Aires",
                  "barrio": "Lomas de Zamora · Parque Barón",
                  "lat": -34.7731711,
                  "lon": -58.442131,
                  "cupos": 91
                },
                {
                  "orden": 2,
                  "escuela": "937 (JI)",
                  "direccion": "Bustos 890",
                  "direccion_completa": "Bustos, 890, Lomas de Zamora (referencia), Buenos Aires",
                  "barrio": "Lomas de Zamora · Bustos, Parque Barón",
                  "lat": -34.7604075,
                  "lon": -58.4476759,
                  "cupos": 340
                },
                {
                  "orden": 3,
                  "escuela": "59 (PP)",
                  "direccion": "Champalanne 2608",
                  "direccion_completa": "Champalanne, 2608, Lomas de Zamora (referencia), Buenos Aires",
                  "barrio": "Lomas de Zamora · Federico Champalanne, Parque Barón",
                  "lat": -34.7535491,
                  "lon": -58.4406953,
                  "cupos": 800
                },
                {
                  "orden": 4,
                  "escuela": "60 (PP)",
                  "direccion": "Cid guido de franc 2520",
                  "direccion_completa": "Cid guido de franc, 2520, Lomas de Zamora (referencia), Buenos Aires",
                  "barrio": "Lomas de Zamora · Profesor Cid Guidi de Franc, B1828HGV, Profesor Cid Guidi de Franc",
                  "lat": -34.748312908510634,
                  "lon": -58.44368500851064,
                  "cupos": 871
                },
                {
                  "orden": 5,
                  "escuela": "951 (JI)",
                  "direccion": "Florencio Sanchez 1270",
                  "direccion_completa": "Florencio Sanchez, 1270, Lomas de Zamora (referencia), Buenos Aires",
                  "barrio": "Lomas de Zamora · Santa Marta",
                  "lat": -34.7481456,
                  "lon": -58.4465936,
                  "cupos": 194
                },
                {
                  "orden": 6,
                  "escuela": "23 (MS)",
                  "direccion": "Florencio Sanchez 1270",
                  "direccion_completa": "Florencio Sanchez, 1270, Lomas de Zamora (referencia), Buenos Aires",
                  "barrio": "Lomas de Zamora · Santa Marta",
                  "lat": -34.7481456,
                  "lon": -58.4465936,
                  "cupos": 1196
                },
                {
                  "orden": 7,
                  "escuela": "38 (MS)",
                  "direccion": "Lope de Vega 1070",
                  "direccion_completa": "Lope de Vega, 1070, Lomas de Zamora (referencia), Buenos Aires",
                  "barrio": "Lomas de Zamora · Santa Marta, Villa Centenario",
                  "lat": -34.7452189,
                  "lon": -58.4471356,
                  "cupos": 380
                },
                {
                  "orden": 8,
                  "escuela": "46 (MS)",
                  "direccion": "las tropas y vernet S/N",
                  "direccion_completa": "las tropas y vernet S/N, , Lomas de Zamora (referencia), Buenos Aires",
                  "barrio": "Lomas de Zamora · Las Tropas, B1828HGV, Las Tropas",
                  "lat": -34.739903,
                  "lon": -58.4367291,
                  "cupos": 950
                },
                {
                  "orden": 9,
                  "escuela": "917 (JI)",
                  "direccion": "Mascagni 395",
                  "direccion_completa": "Mascagni, 395, Lomas de Zamora (referencia), Buenos Aires",
                  "barrio": "Lomas de Zamora · Pedro Mascagni, Lomas de Zamora",
                  "lat": -34.751326,
                  "lon": -58.4328872,
                  "cupos": 147
                }
              ]
            },
            {
              "viaje_n": 3,
              "cupos_cargados": 4860,
              "n_paradas": 9,
              "min_total": 140.2,
              "km": 45.449,
              "stops": [
                {
                  "orden": 1,
                  "escuela": "5 (PP)",
                  "direccion": "Juan José Castelli 1710",
                  "direccion_completa": "Juan José Castelli, 1710, Lomas de Zamora (referencia), Buenos Aires",
                  "barrio": "Lomas de Zamora · Juan José Castelli, Lomas de Zamora",
                  "lat": -34.7506424,
                  "lon": -58.4198362,
                  "cupos": 660
                },
                {
                  "orden": 2,
                  "escuela": "53 (PP)",
                  "direccion": "Las Tropas y Vernet 1700",
                  "direccion_completa": "Las Tropas y Vernet, 1700, Lomas de Zamora (referencia), Buenos Aires",
                  "barrio": "Lomas de Zamora · B1828HGV, Lomas de Zamora, Buenos Aires",
                  "lat": -34.7498391,
                  "lon": -58.4281883,
                  "cupos": 1000
                },
                {
                  "orden": 3,
                  "escuela": "801 (CEC)",
                  "direccion": "Las Heras 2203",
                  "direccion_completa": "Las Heras, 2203, Lomas de Zamora (referencia), Buenos Aires",
                  "barrio": "Lomas de Zamora · Avenida Juan Gregorio de las Heras, Lomas de Zamora",
                  "lat": -34.745958,
                  "lon": -58.4260827,
                  "cupos": 360
                },
                {
                  "orden": 4,
                  "escuela": "31 (PP)",
                  "direccion": "Av. Hipólito Yrigoyen 7672",
                  "direccion_completa": "Av. Hipólito Yrigoyen, 7672, Lomas de Zamora (referencia), Buenos Aires",
                  "barrio": "Lomas de Zamora · 7672, Avenida Hipólito Yrigoyen, Banfield",
                  "lat": -34.7445677,
                  "lon": -58.3990646,
                  "cupos": 280
                },
                {
                  "orden": 5,
                  "escuela": "51 (PP)",
                  "direccion": "Muzzili 163",
                  "direccion_completa": "Muzzili, 163, Lomas de Zamora (referencia), Buenos Aires",
                  "barrio": "Lomas de Zamora · 1828, Buenos Aires, Argentina",
                  "lat": -34.7437455,
                  "lon": -58.3960811,
                  "cupos": 384
                },
                {
                  "orden": 6,
                  "escuela": "7 (PP)",
                  "direccion": "Av. Alsina 1052",
                  "direccion_completa": "Av. Alsina, 1052, Lomas de Zamora (referencia), Buenos Aires",
                  "barrio": "Lomas de Zamora · Avenida Alsina, Banfield",
                  "lat": -34.7488176,
                  "lon": -58.3940788,
                  "cupos": 326
                },
                {
                  "orden": 7,
                  "escuela": "21 (PP)",
                  "direccion": "J.M. Pena 99",
                  "direccion_completa": "J.M. Pena, 99, Lomas de Zamora (referencia), Buenos Aires",
                  "barrio": "Lomas de Zamora · Peña, 1828, Peña",
                  "lat": -34.7494129,
                  "lon": -58.3944716,
                  "cupos": 650
                },
                {
                  "orden": 8,
                  "escuela": "7 (MT)",
                  "direccion": "Acevedo 1864",
                  "direccion_completa": "Acevedo, 1864, Lomas de Zamora (referencia), Buenos Aires",
                  "barrio": "Lomas de Zamora · Manuel Acevedo, Banfield",
                  "lat": -34.7383918,
                  "lon": -58.3967418,
                  "cupos": 880
                },
                {
                  "orden": 9,
                  "escuela": "939 (JI)",
                  "direccion": "La Haya 2155",
                  "direccion_completa": "La Haya, 2155, Lomas de Zamora (referencia), Buenos Aires",
                  "barrio": "Lomas de Zamora · La Haya, Villa Albertina",
                  "lat": -34.7291193,
                  "lon": -58.4517145,
                  "cupos": 320
                }
              ]
            },
            {
              "viaje_n": 4,
              "cupos_cargados": 350,
              "n_paradas": 1,
              "min_total": 41.11,
              "km": 34.736,
              "stops": [
                {
                  "orden": 1,
                  "escuela": "1182 (PP)",
                  "direccion": "Juan M. de Lavardén 2472",
                  "direccion_completa": "Juan M. de Lavardén, 2472, Lomas de Zamora (referencia), Buenos Aires",
                  "barrio": "Lomas de Zamora · Manuel José de Lavardén, 1771, Manuel José de Lavardén",
                  "lat": -34.7200159,
                  "lon": -58.4686276,
                  "cupos": 350
                }
              ]
            }
          ]
        },
        {
          "id": 8,
          "titulo": "Zona 8",
          "viajes": [
            {
              "viaje_n": 1,
              "cupos_cargados": 4995,
              "n_paradas": 12,
              "min_total": 164.69,
              "km": 34.293,
              "stops": [
                {
                  "orden": 1,
                  "escuela": "22 (PP)",
                  "direccion": "Santa Teresa 90",
                  "direccion_completa": "Santa Teresa, 90, Lomas de Zamora (referencia), Buenos Aires",
                  "barrio": "Lomas de Zamora · Turdera",
                  "lat": -34.7959905,
                  "lon": -58.406546,
                  "cupos": 368
                },
                {
                  "orden": 2,
                  "escuela": "41 (MS)",
                  "direccion": "Hiólito Yrigoyen 11518",
                  "direccion_completa": "Hiólito Yrigoyen, 11518, Lomas de Zamora (referencia), Buenos Aires",
                  "barrio": "Lomas de Zamora · 11518, Avenida Hipólito Yrigoyen, B1833",
                  "lat": -34.7912111,
                  "lon": -58.4084651,
                  "cupos": 593
                },
                {
                  "orden": 3,
                  "escuela": "72 (PP)",
                  "direccion": "Hiólito Yrigoyen 11518",
                  "direccion_completa": "Hiólito Yrigoyen, 11518, Lomas de Zamora (referencia), Buenos Aires",
                  "barrio": "Lomas de Zamora · 11518, Avenida Hipólito Yrigoyen, B1833",
                  "lat": -34.7912111,
                  "lon": -58.4084651,
                  "cupos": 289
                },
                {
                  "orden": 4,
                  "escuela": "65 (MS)",
                  "direccion": "Huergo 40",
                  "direccion_completa": "Huergo, 40, Lomas de Zamora (referencia), Buenos Aires",
                  "barrio": "Lomas de Zamora · Temperley",
                  "lat": -34.7808214,
                  "lon": -58.411593,
                  "cupos": 630
                },
                {
                  "orden": 5,
                  "escuela": "911 (JI)",
                  "direccion": "Lavalle 879",
                  "direccion_completa": "Lavalle, 879, Lomas de Zamora (referencia), Buenos Aires",
                  "barrio": "Lomas de Zamora · 879, General Juan Galo de Lavalle, Temperley",
                  "lat": -34.7769976,
                  "lon": -58.4092747,
                  "cupos": 159
                },
                {
                  "orden": 6,
                  "escuela": "6 (PP)",
                  "direccion": "Garibaldi 1298",
                  "direccion_completa": "Garibaldi, 1298, Lomas de Zamora (referencia), Buenos Aires",
                  "barrio": "Lomas de Zamora · Lomas de Zamora",
                  "lat": -34.7715417,
                  "lon": -58.4056323,
                  "cupos": 241
                },
                {
                  "orden": 7,
                  "escuela": "802 (CEC)",
                  "direccion": "Av José Garibaldi 1256",
                  "direccion_completa": "Av José Garibaldi, 1256, Lomas de Zamora (referencia), Buenos Aires",
                  "barrio": "Lomas de Zamora · Temperley",
                  "lat": -34.7693708,
                  "lon": -58.4015001,
                  "cupos": 612
                },
                {
                  "orden": 8,
                  "escuela": "5 (MS)",
                  "direccion": "Av. Eva Perón y Albarracín",
                  "direccion_completa": "Av. Eva Perón y Albarracín, , Lomas de Zamora (referencia), Buenos Aires",
                  "barrio": "Lomas de Zamora · Avenida Eva Perón, 1834, Avenida Eva Perón",
                  "lat": -34.7758929,
                  "lon": -58.389098,
                  "cupos": 494
                },
                {
                  "orden": 9,
                  "escuela": "2 (PP)",
                  "direccion": "Albarracín 911",
                  "direccion_completa": "Albarracín, 911, Lomas de Zamora (referencia), Buenos Aires",
                  "barrio": "Lomas de Zamora · Santiago Albarracín, Temperley",
                  "lat": -34.7759648,
                  "lon": -58.3888839,
                  "cupos": 678
                },
                {
                  "orden": 10,
                  "escuela": "44 (MS)",
                  "direccion": "Perito Moreno 260",
                  "direccion_completa": "Perito Moreno, 260, Lomas de Zamora (referencia), Buenos Aires",
                  "barrio": "Lomas de Zamora · 260, Perito Francisco Moreno, Temperley",
                  "lat": -34.7827965,
                  "lon": -58.3919436,
                  "cupos": 397
                },
                {
                  "orden": 11,
                  "escuela": "57 (MS)",
                  "direccion": "Bernardo de Irigoyen 750",
                  "direccion_completa": "Bernardo de Irigoyen, 750, Lomas de Zamora (referencia), Buenos Aires",
                  "barrio": "Lomas de Zamora · 750, Bernardo de Irigoyen, Temperley",
                  "lat": -34.7690999,
                  "lon": -58.3848868,
                  "cupos": 534
                },
                {
                  "orden": 12,
                  "escuela": "20 (PP)",
                  "direccion": "Viamonte 423",
                  "direccion_completa": "Viamonte, 423, Lomas de Zamora (referencia), Buenos Aires",
                  "barrio": "Lomas de Zamora · J. J. Viamonte, Lomas de Zamora",
                  "lat": -34.7567616,
                  "lon": -58.3912277,
                  "cupos": 0
                }
              ]
            },
            {
              "viaje_n": 2,
              "cupos_cargados": 1197,
              "n_paradas": 8,
              "min_total": 205.73,
              "km": 100.692,
              "stops": [
                {
                  "orden": 1,
                  "escuela": "55 (PP)",
                  "direccion": "Nestor De La Peña 654",
                  "direccion_completa": "Nestor De La Peña, 654, Lomas de Zamora (referencia), Buenos Aires",
                  "barrio": "Lomas de Zamora · Llavallol",
                  "lat": -34.7886806,
                  "lon": -58.4295052,
                  "cupos": 287
                },
                {
                  "orden": 2,
                  "escuela": "69 (PP)",
                  "direccion": "Bernardo de Irigoyen 750",
                  "direccion_completa": "Bernardo de Irigoyen, 750, Lomas de Zamora (referencia), Buenos Aires",
                  "barrio": "Lomas de Zamora · 750, Bernardo de Irigoyen, Temperley",
                  "lat": -34.7690999,
                  "lon": -58.3848868,
                  "cupos": 565
                },
                {
                  "orden": 3,
                  "escuela": "918 (JI)",
                  "direccion": "Vieytes 651",
                  "direccion_completa": "Vieytes, 651, Lomas de Zamora (referencia), Buenos Aires",
                  "barrio": "Lomas de Zamora · Avenida Juan Hipólito Vieytes, Banfield",
                  "lat": -34.7392128,
                  "lon": -58.403408,
                  "cupos": 123
                },
                {
                  "orden": 4,
                  "escuela": "1662 (Nuestra Señora de los Milagros)",
                  "direccion": "Pto Argentino 1040",
                  "direccion_completa": "Pto Argentino, 1040, Lomas de Zamora (referencia), Buenos Aires",
                  "barrio": "Lomas de Zamora · Puerto Argentino, Villa Centenario",
                  "lat": -34.730277,
                  "lon": -58.4322014,
                  "cupos": 40
                },
                {
                  "orden": 5,
                  "escuela": "8301 (Didascalio)",
                  "direccion": "A. Cap. Giaccino 3000",
                  "direccion_completa": "A. Cap. Giaccino, 3000, Lomas de Zamora (referencia), Buenos Aires",
                  "barrio": "Lomas de Zamora · B1839FDK, Buenos Aires, Argentina",
                  "lat": -34.741869,
                  "lon": -58.4765483,
                  "cupos": 30
                },
                {
                  "orden": 6,
                  "escuela": "5729 (Asunciòn de Maria)",
                  "direccion": "Armesti 3345",
                  "direccion_completa": "Armesti, 3345, Lomas de Zamora (referencia), Buenos Aires",
                  "barrio": "Lomas de Zamora · Boulevard Armesti, San José",
                  "lat": -34.7427862,
                  "lon": -58.3505617,
                  "cupos": 30
                },
                {
                  "orden": 7,
                  "escuela": "912 (JI)",
                  "direccion": "San Benito esq. 9 de Julio",
                  "direccion_completa": "San Benito esq. 9 de Julio, , Lomas de Zamora (referencia), Buenos Aires",
                  "barrio": "Lomas de Zamora · B1844, San José, Buenos Aires",
                  "lat": -34.7555208,
                  "lon": -58.345127,
                  "cupos": 107
                },
                {
                  "orden": 8,
                  "escuela": "3662 (Niño de Belen)",
                  "direccion": "S. de Bustamante 1530",
                  "direccion_completa": "S. de Bustamante, 1530, Lomas de Zamora (referencia), Buenos Aires",
                  "barrio": "Lomas de Zamora · 435, Sánchez de Bustamante, Almagro",
                  "lat": -34.6046332,
                  "lon": -58.4145967,
                  "cupos": 15
                }
              ]
            }
          ]
        },
        {
          "id": 9,
          "titulo": "Zona 9",
          "viajes": [
            {
              "viaje_n": 1,
              "cupos_cargados": 4986,
              "n_paradas": 17,
              "min_total": 244.07,
              "km": 51.832,
              "stops": [
                {
                  "orden": 1,
                  "escuela": "932 (JI)",
                  "direccion": "Antartida Argentina y Santa Catalina",
                  "direccion_completa": "Antartida Argentina y Santa Catalina, , Lomas de Zamora (referencia), Buenos Aires",
                  "barrio": "Lomas de Zamora · Santa Catalina, 1838, Santa Catalina",
                  "lat": -34.8146657,
                  "lon": -58.4321209,
                  "cupos": 40
                },
                {
                  "orden": 2,
                  "escuela": "74 (PP)",
                  "direccion": "Santos Vega y Pareta sin número Llavallol",
                  "direccion_completa": "Santos Vega y Pareta sin número Llavallol, , Lomas de Zamora (referencia), Buenos Aires",
                  "barrio": "Lomas de Zamora · 1851, Llavallol, Buenos Aires",
                  "lat": -34.8066373,
                  "lon": -58.4286211,
                  "cupos": 268
                },
                {
                  "orden": 3,
                  "escuela": "71 (PP)",
                  "direccion": "9 de Febrero 390",
                  "direccion_completa": "9 de Febrero, 390, Lomas de Zamora (referencia), Buenos Aires",
                  "barrio": "Lomas de Zamora · 390, 9 de Febrero, Llavallol",
                  "lat": -34.7939752,
                  "lon": -58.4348671,
                  "cupos": 400
                },
                {
                  "orden": 4,
                  "escuela": "58 (MS)",
                  "direccion": "Olleros 1004",
                  "direccion_completa": "Olleros, 1004, Lomas de Zamora (referencia), Buenos Aires",
                  "barrio": "Lomas de Zamora · Llavallol",
                  "lat": -34.7892076,
                  "lon": -58.4273241,
                  "cupos": 548
                },
                {
                  "orden": 5,
                  "escuela": "52 (MS)",
                  "direccion": "Araguaya 957",
                  "direccion_completa": "Araguaya, 957, Lomas de Zamora (referencia), Buenos Aires",
                  "barrio": "Lomas de Zamora · Llavallol",
                  "lat": -34.7883504,
                  "lon": -58.4208008,
                  "cupos": 150
                },
                {
                  "orden": 6,
                  "escuela": "42 (PP)",
                  "direccion": "Aragón 950",
                  "direccion_completa": "Aragón, 950, Lomas de Zamora (referencia), Buenos Aires",
                  "barrio": "Lomas de Zamora · Llavallol",
                  "lat": -34.7881313,
                  "lon": -58.419635,
                  "cupos": 292
                },
                {
                  "orden": 7,
                  "escuela": "45 (MS)",
                  "direccion": "Av Antártida Argentina 2251",
                  "direccion_completa": "Av Antártida Argentina, 2251, Lomas de Zamora (referencia), Buenos Aires",
                  "barrio": "Lomas de Zamora · Turdera",
                  "lat": -34.7896444,
                  "lon": -58.4090933,
                  "cupos": 247
                },
                {
                  "orden": 8,
                  "escuela": "1 (CFI)",
                  "direccion": "Lavalle 851",
                  "direccion_completa": "Lavalle, 851, Lomas de Zamora (referencia), Buenos Aires",
                  "barrio": "Lomas de Zamora · 851, General Juan Galo de Lavalle, Temperley",
                  "lat": -34.7767627,
                  "lon": -58.4089844,
                  "cupos": 494
                },
                {
                  "orden": 9,
                  "escuela": "77 (MS)",
                  "direccion": "De Heredia y Juramento 250",
                  "direccion_completa": "De Heredia y Juramento, 250, Lomas de Zamora (referencia), Buenos Aires",
                  "barrio": "Lomas de Zamora",
                  "lat": -34.7758816,
                  "lon": -58.3971199,
                  "cupos": 554
                },
                {
                  "orden": 10,
                  "escuela": "42 (MS)",
                  "direccion": "Angel Gallardo 170",
                  "direccion_completa": "Angel Gallardo, 170, Lomas de Zamora (referencia), Buenos Aires",
                  "barrio": "Lomas de Zamora · 170, Ángel Gallardo, Temperley",
                  "lat": -34.7693733,
                  "lon": -58.3952308,
                  "cupos": 420
                },
                {
                  "orden": 11,
                  "escuela": "36 (PP)",
                  "direccion": "Angel Gallardo 170",
                  "direccion_completa": "Angel Gallardo, 170, Lomas de Zamora (referencia), Buenos Aires",
                  "barrio": "Lomas de Zamora · 170, Ángel Gallardo, Temperley",
                  "lat": -34.7693733,
                  "lon": -58.3952308,
                  "cupos": 262
                },
                {
                  "orden": 12,
                  "escuela": "502 (EE)",
                  "direccion": "Garibaldi 253",
                  "direccion_completa": "Garibaldi, 253, Lomas de Zamora (referencia), Buenos Aires",
                  "barrio": "Lomas de Zamora · José Garibaldi, Lomas de Zamora",
                  "lat": -34.7689433,
                  "lon": -58.4010141,
                  "cupos": 223
                },
                {
                  "orden": 13,
                  "escuela": "17 (PP)",
                  "direccion": "Olivan 107",
                  "direccion_completa": "Olivan, 107, Lomas de Zamora (referencia), Buenos Aires",
                  "barrio": "Lomas de Zamora",
                  "lat": -34.7527522,
                  "lon": -58.4082001,
                  "cupos": 480
                },
                {
                  "orden": 14,
                  "escuela": "929 (JI)",
                  "direccion": "C.C.Vigil 1059",
                  "direccion_completa": "C.C.Vigil, 1059, Lomas de Zamora (referencia), Buenos Aires",
                  "barrio": "Lomas de Zamora · Constancio C. Vigil, Parque Barón",
                  "lat": -34.7626189,
                  "lon": -58.4361466,
                  "cupos": 143
                },
                {
                  "orden": 15,
                  "escuela": "935 (JI)",
                  "direccion": "Lavarden 195",
                  "direccion_completa": "Lavarden, 195, Lomas de Zamora (referencia), Buenos Aires",
                  "barrio": "Lomas de Zamora · Manuel José de Lavardén, Villa Albertina",
                  "lat": -34.7418177,
                  "lon": -58.4512796,
                  "cupos": 150
                },
                {
                  "orden": 16,
                  "escuela": "79 (MS)",
                  "direccion": "Presidente Quintana 266",
                  "direccion_completa": "Presidente Quintana, 266, Lomas de Zamora (referencia), Buenos Aires",
                  "barrio": "Lomas de Zamora · Presidente Quintana, Banfield",
                  "lat": -34.7431142,
                  "lon": -58.3797908,
                  "cupos": 315
                },
                {
                  "orden": 17,
                  "escuela": "75 (MS)",
                  "direccion": "La Calandria 4654",
                  "direccion_completa": "La Calandria, 4654, Lomas de Zamora (referencia), Buenos Aires",
                  "barrio": "Lomas de Zamora · San José",
                  "lat": -34.7653174,
                  "lon": -58.3666868,
                  "cupos": 0
                }
              ]
            },
            {
              "viaje_n": 2,
              "cupos_cargados": 4938,
              "n_paradas": 10,
              "min_total": 136.43,
              "km": 31.195,
              "stops": [
                {
                  "orden": 1,
                  "escuela": "910 (JI)",
                  "direccion": "Cuyo 1111",
                  "direccion_completa": "Cuyo, 1111, Lomas de Zamora (referencia), Buenos Aires",
                  "barrio": "Lomas de Zamora · Llavallol",
                  "lat": -34.8025378,
                  "lon": -58.4090888,
                  "cupos": 165
                },
                {
                  "orden": 2,
                  "escuela": "505 (EE)",
                  "direccion": "Quilmes 2305",
                  "direccion_completa": "Quilmes, 2305, Lomas de Zamora (referencia), Buenos Aires",
                  "barrio": "Lomas de Zamora · Quilmes, San José",
                  "lat": -34.7700974,
                  "lon": -58.3657314,
                  "cupos": 290
                },
                {
                  "orden": 3,
                  "escuela": "52 (PP)",
                  "direccion": "De Heredia 250",
                  "direccion_completa": "De Heredia, 250, Lomas de Zamora (referencia), Buenos Aires",
                  "barrio": "Lomas de Zamora · San José",
                  "lat": -34.7711501,
                  "lon": -58.3607551,
                  "cupos": 560
                },
                {
                  "orden": 4,
                  "escuela": "803 (CEC)",
                  "direccion": "Jesús R. Olivan (ex México) 163",
                  "direccion_completa": "Jesús R. Olivan (ex México), 163, Lomas de Zamora (referencia), Buenos Aires",
                  "barrio": "Lomas de Zamora · Avenida República Argentina, 1844, Avenida República Argentina",
                  "lat": -34.76537595319149,
                  "lon": -58.36525956382979,
                  "cupos": 475
                },
                {
                  "orden": 5,
                  "escuela": "61 (PP)",
                  "direccion": "Avenida Pasco 4687",
                  "direccion_completa": "Avenida Pasco, 4687, Lomas de Zamora (referencia), Buenos Aires",
                  "barrio": "Lomas de Zamora · San José",
                  "lat": -34.7627085,
                  "lon": -58.3641252,
                  "cupos": 1240
                },
                {
                  "orden": 6,
                  "escuela": "28 (MS)",
                  "direccion": "El Trébol 3785",
                  "direccion_completa": "El Trébol, 3785, Lomas de Zamora (referencia), Buenos Aires",
                  "barrio": "Lomas de Zamora · San José",
                  "lat": -34.761152,
                  "lon": -58.3671271,
                  "cupos": 486
                },
                {
                  "orden": 7,
                  "escuela": "50 (PP)",
                  "direccion": "El Trébol 3785",
                  "direccion_completa": "El Trébol, 3785, Lomas de Zamora (referencia), Buenos Aires",
                  "barrio": "Lomas de Zamora · San José",
                  "lat": -34.761152,
                  "lon": -58.3671271,
                  "cupos": 472
                },